{
  "Washington, DC": {
    "adminCode2": "001",
    "adminCode3": "",
    "adminCode1": "DC",
    "lng": "-77.01358",
    "houseNumber": "",
    "locality": "Washington",
    "adminCode4": "",
    "adminName2": "Washington",
    "street": "DC Village Ln SW",
    "postalcode": "20032",
    "countryCode": "US",
    "adminName1": "Washington, D.C.",
    "lat": "38.81525"
  },
  "Boston, MA": {
    "adminCode2": "025",
    "adminCode3": "",
    "adminCode1": "MA",
    "lng": "-71.02349",
    "houseNumber": "",
    "locality": "Boston",
    "adminCode4": "",
    "adminName2": "Suffolk",
    "street": "E Boston Expy",
    "postalcode": "",
    "countryCode": "US",
    "adminName1": "Massachusetts",
    "lat": "42.3813"
  },
  "Lewisburg, PA": {
    "adminCode2": "119",
    "adminCode3": "",
    "adminCode1": "PA",
    "lng": "-76.88721",
    "houseNumber": "",
    "locality": "Lewisburg",
    "adminCode4": "",
    "adminName2": "Union",
    "street": "Market St",
    "postalcode": "17837",
    "countryCode": "US",
    "adminName1": "Pennsylvania",
    "lat": "40.96305"
  },
  "Ann Arbor, MI": {
    "adminCode2": "161",
    "adminCode3": "",
    "adminCode1": "MI",
    "lng": "-83.7625",
    "houseNumber": "",
    "locality": "Ann Arbor",
    "adminCode4": "",
    "adminName2": "Washtenaw",
    "street": "Ann Arbor-Saline Rd",
    "postalcode": "",
    "countryCode": "US",
    "adminName1": "Michigan",
    "lat": "42.24628"
  },
  "Fort Benning, GA": {
    "adminCode2": "215",
    "adminCode3": "",
    "adminCode1": "GA",
    "lng": "-84.9565",
    "houseNumber": "",
    "locality": "Columbus",
    "adminCode4": "",
    "adminName2": "Muscogee",
    "street": "Fort Benning Rd",
    "postalcode": "",
    "countryCode": "US",
    "adminName1": "Georgia",
    "lat": "32.37526"
  },
  "Waterville, ME": {
    "adminCode2": "011",
    "adminCode3": "",
    "adminCode1": "ME",
    "lng": "-69.64264",
    "houseNumber": "",
    "locality": "Waterville",
    "adminCode4": "",
    "adminName2": "Kennebec",
    "street": "Waterville Cmns",
    "postalcode": "04901",
    "countryCode": "US",
    "adminName1": "Maine",
    "lat": "44.57005"
  },
  "Easton, PA": {
    "adminCode2": "095",
    "adminCode3": "",
    "adminCode1": "PA",
    "lng": "-75.2307",
    "houseNumber": "",
    "locality": "Easton",
    "adminCode4": "",
    "adminName2": "Northampton",
    "street": "Conrail",
    "postalcode": "18042",
    "countryCode": "US",
    "adminName1": "Pennsylvania",
    "lat": "40.68119"
  },
  "Los Angeles, CA": {
    "adminCode2": "037",
    "adminCode3": "",
    "adminCode1": "CA",
    "lng": "-118.36666",
    "houseNumber": "",
    "locality": "Los Angeles",
    "adminCode4": "",
    "adminName2": "Los Angeles",
    "street": "Los Angeles Riv",
    "postalcode": "",
    "countryCode": "US",
    "adminName1": "California",
    "lat": "34.14356"
  },
  "Coventry, England": {
    "lat": "52.4068",
    "lng": "-1.5197"
  },
  "New York, NY": {
    "adminCode2": "061",
    "adminCode3": "",
    "adminCode1": "NY",
    "lng": "-74.01253",
    "houseNumber": "",
    "locality": "New York",
    "adminCode4": "",
    "adminName2": "New York",
    "street": "New York Plz",
    "postalcode": "10004",
    "countryCode": "US",
    "adminName1": "New York",
    "lat": "40.70254"
  },
  "Oxford, OH": {
    "adminCode2": "017",
    "adminCode3": "",
    "adminCode1": "OH",
    "lng": "-84.74507",
    "houseNumber": "",
    "locality": "Oxford",
    "adminCode4": "",
    "adminName2": "Butler",
    "street": "Beech",
    "postalcode": "45056",
    "countryCode": "US",
    "adminName1": "Ohio",
    "lat": "39.50227"
  },
  "Cincinnati, OH": {
    "adminCode2": "061",
    "adminCode3": "",
    "adminCode1": "OH",
    "lng": "-84.70424",
    "houseNumber": "",
    "locality": "Cincinnati",
    "adminCode4": "",
    "adminName2": "Hamilton",
    "street": "Csx RR",
    "postalcode": "",
    "countryCode": "US",
    "adminName1": "Ohio",
    "lat": "39.12488"
  },
  "Winston-Salem, NC": {
    "adminCode2": "067",
    "adminCode3": "",
    "adminCode1": "NC",
    "lng": "-80.27758",
    "houseNumber": "",
    "locality": "Winston-Salem",
    "adminCode4": "",
    "adminName2": "Forsyth",
    "street": "Winston Ct",
    "postalcode": "27103",
    "countryCode": "US",
    "adminName1": "North Carolina",
    "lat": "36.0907"
  },
  "Madison, WI": {
    "adminCode2": "025",
    "adminCode3": "",
    "adminCode1": "WI",
    "lng": "-89.49767",
    "houseNumber": "",
    "locality": "Madison",
    "adminCode4": "",
    "adminName2": "Dane",
    "street": "Tottenham Rd",
    "postalcode": "53711",
    "countryCode": "US",
    "adminName1": "Wisconsin",
    "lat": "43.02989"
  },
  "Santa Barbara, CA": {
    "adminCode2": "083",
    "adminCode3": "",
    "adminCode1": "CA",
    "lng": "-119.69513",
    "houseNumber": "",
    "locality": "Santa Barbara",
    "adminCode4": "",
    "adminName2": "Santa Barbara",
    "street": "Santa Barbara St",
    "postalcode": "93101",
    "countryCode": "US",
    "adminName1": "California",
    "lat": "34.42034"
  },
  "Annapolis, MD": {
    "adminCode2": "003",
    "adminCode3": "",
    "adminCode1": "MD",
    "lng": "-76.50063",
    "houseNumber": "",
    "locality": "Annapolis",
    "adminCode4": "",
    "adminName2": "Anne Arundel",
    "street": "Annapolis St",
    "postalcode": "",
    "countryCode": "US",
    "adminName1": "Maryland",
    "lat": "38.9889"
  },
  "Wellesley, MA": {
    "adminCode2": "021",
    "adminCode3": "",
    "adminCode1": "MA",
    "lng": "-71.28508",
    "houseNumber": "",
    "locality": "Wellesley",
    "adminCode4": "",
    "adminName2": "Norfolk",
    "street": "Wellesley Ave",
    "postalcode": "02482",
    "countryCode": "US",
    "adminName1": "Massachusetts",
    "lat": "42.29773"
  },
  "Miami, FL": {
    "adminCode2": "086",
    "adminCode3": "",
    "adminCode1": "FL",
    "lng": "-80.14681",
    "houseNumber": "",
    "locality": "Miami",
    "adminCode4": "",
    "adminName2": "Miami-Dade County",
    "street": "Atlantic",
    "postalcode": "",
    "countryCode": "US",
    "adminName1": "Florida",
    "lat": "25.73483"
  },
  "Oberlin, OH": {
    "adminCode2": "093",
    "adminCode3": "",
    "adminCode1": "OH",
    "lng": "-82.19714",
    "houseNumber": "",
    "locality": "Oberlin",
    "adminCode4": "",
    "adminName2": "Lorain",
    "street": "Oberlin Rd",
    "postalcode": "44074",
    "countryCode": "US",
    "adminName1": "Ohio",
    "lat": "41.29534"
  },
  "Philadelphia, PA": {
    "adminCode2": "101",
    "adminCode3": "",
    "adminCode1": "PA",
    "lng": "-75.24335",
    "houseNumber": "",
    "locality": "Philadelphia",
    "adminCode4": "",
    "adminName2": "Philadelphia",
    "street": "Penn Central RR",
    "postalcode": "",
    "countryCode": "US",
    "adminName1": "Pennsylvania",
    "lat": "39.91518"
  },
  "Houston, TX": {
    "adminCode2": "201",
    "adminCode3": "",
    "adminCode1": "TX",
    "lng": "-95.21763",
    "houseNumber": "",
    "locality": "Houston",
    "adminCode4": "",
    "adminName2": "Harris",
    "street": "Lake Houston Pkwy",
    "postalcode": "",
    "countryCode": "US",
    "adminName1": "Texas",
    "lat": "29.80625"
  },
  "Greensboro, NC": {
    "adminCode2": "081",
    "adminCode3": "",
    "adminCode1": "NC",
    "lng": "-79.79865",
    "houseNumber": "",
    "locality": "Greensboro",
    "adminCode4": "",
    "adminName2": "Guilford",
    "street": "Craig St",
    "postalcode": "",
    "countryCode": "US",
    "adminName1": "North Carolina",
    "lat": "36.04861"
  },
  "Charleston, SC": {
    "adminCode2": "019",
    "adminCode3": "",
    "adminCode1": "SC",
    "lng": "-80.0282",
    "houseNumber": "",
    "locality": "Charleston",
    "adminCode4": "",
    "adminName2": "Charleston",
    "street": "Orleans Rd",
    "postalcode": "",
    "countryCode": "US",
    "adminName1": "South Carolina",
    "lat": "32.79581"
  },
  "Boulder, CO": {
    "adminCode2": "013",
    "adminCode3": "",
    "adminCode1": "CO",
    "lng": "-105.25594",
    "houseNumber": "",
    "locality": "Boulder",
    "adminCode4": "",
    "adminName2": "Boulder",
    "street": "Boulder Crk",
    "postalcode": "",
    "countryCode": "US",
    "adminName1": "Colorado",
    "lat": "40.01085"
  },
  "Tempe, AZ": {
    "adminCode2": "013",
    "adminCode3": "",
    "adminCode1": "AZ",
    "lng": "-111.88981",
    "houseNumber": "",
    "locality": "Tempe",
    "adminCode4": "",
    "adminName2": "Maricopa",
    "street": "Tempe Cnl",
    "postalcode": "",
    "countryCode": "US",
    "adminName1": "Arizona",
    "lat": "33.38666"
  },
  "Chicago, IL": {
    "adminCode2": "031",
    "adminCode3": "",
    "adminCode1": "IL",
    "lng": "-87.73889",
    "houseNumber": "",
    "locality": "Chicago",
    "adminCode4": "",
    "adminName2": "Cook",
    "street": "Chicago Belt RR",
    "postalcode": "",
    "countryCode": "US",
    "adminName1": "Illinois",
    "lat": "41.83946"
  },
  "Worcester, MA": {
    "adminCode2": "027",
    "adminCode3": "",
    "adminCode1": "MA",
    "lng": "-71.75477",
    "houseNumber": "",
    "locality": "Worcester",
    "adminCode4": "",
    "adminName2": "Worcester",
    "street": "Boston Worcester Tpke",
    "postalcode": "",
    "countryCode": "US",
    "adminName1": "Massachusetts",
    "lat": "42.27439"
  },
  "Atlanta, GA": {
    "adminCode2": "121",
    "adminCode3": "",
    "adminCode1": "GA",
    "lng": "-84.43395",
    "houseNumber": "",
    "locality": "Atlanta",
    "adminCode4": "",
    "adminName2": "Fulton",
    "street": "Overlook Atlanta Apartments",
    "postalcode": "",
    "countryCode": "US",
    "adminName1": "Georgia",
    "lat": "33.77333"
  },
  "Ithaca, NY": {
    "adminCode2": "109",
    "adminCode3": "",
    "adminCode1": "NY",
    "lng": "-76.48175",
    "houseNumber": "",
    "locality": "Ithaca",
    "adminCode4": "",
    "adminName2": "Tompkins",
    "street": "Ithaca Rd",
    "postalcode": "",
    "countryCode": "US",
    "adminName1": "New York",
    "lat": "42.43752"
  },
  "St. Paul, MN": {
    "adminCode2": "123",
    "adminCode3": "",
    "adminCode1": "MN",
    "lng": "-93.17763",
    "houseNumber": "",
    "locality": "St. Paul",
    "adminCode4": "",
    "adminName2": "Ramsey",
    "street": "St Paul Ave",
    "postalcode": "55116",
    "countryCode": "US",
    "adminName1": "Minnesota",
    "lat": "44.90423"
  },
  "Edinburgh, Scotland": {
    "lng": "-3.1883",
    "lat": "55.9533"
  },
  "Burlington, VT": {
    "adminCode2": "007",
    "adminCode3": "",
    "adminCode1": "VT",
    "lng": "-73.18937",
    "houseNumber": "",
    "locality": "Burlington",
    "adminCode4": "",
    "adminName2": "Chittenden",
    "street": "Centennial Ct",
    "postalcode": "",
    "countryCode": "US",
    "adminName1": "Vermont",
    "lat": "44.47647"
  },
  "Athens, GA": {
    "adminCode2": "219",
    "adminCode3": "",
    "adminCode1": "GA",
    "lng": "-83.46484",
    "houseNumber": "",
    "locality": "",
    "adminCode4": "",
    "adminName2": "Oconee",
    "street": "Athens Perimeter",
    "postalcode": "",
    "countryCode": "US",
    "adminName1": "Georgia",
    "lat": "33.92455"
  },
  "Bloomington, IN": {
    "adminCode2": "105",
    "adminCode3": "",
    "adminCode1": "IN",
    "lng": "-86.53689",
    "houseNumber": "",
    "locality": "Bloomington",
    "adminCode4": "",
    "adminName2": "Monroe",
    "street": "Griffy Crk",
    "postalcode": "",
    "countryCode": "US",
    "adminName1": "Indiana",
    "lat": "39.20317"
  },
  "Rochester, NY": {
    "adminCode2": "055",
    "adminCode3": "",
    "adminCode1": "NY",
    "lng": "-77.6629",
    "houseNumber": "",
    "locality": "Rochester",
    "adminCode4": "",
    "adminName2": "Monroe",
    "street": "Rochester St",
    "postalcode": "",
    "countryCode": "US",
    "adminName1": "New York",
    "lat": "43.15883"
  },
  "Shanghai, China": {
    "lng": "121.4737",
    "lat": "31.2304"
  },
  "Columbus, OH": {
    "adminCode2": "049",
    "adminCode3": "",
    "adminCode1": "OH",
    "lng": "-82.96973",
    "houseNumber": "",
    "locality": "Columbus",
    "adminCode4": "",
    "adminName2": "Franklin",
    "street": "E Columbus St",
    "postalcode": "",
    "countryCode": "US",
    "adminName1": "Ohio",
    "lat": "39.94606"
  },
  "Hartford, CT": {
    "adminCode2": "003",
    "adminCode3": "",
    "adminCode1": "CT",
    "lng": "-72.67323",
    "houseNumber": "",
    "locality": "Hartford",
    "adminCode4": "",
    "adminName2": "Hartford",
    "street": "Crane Ct",
    "postalcode": "06120",
    "countryCode": "US",
    "adminName1": "Connecticut",
    "lat": "41.78602"
  },
  "Lowell, MA": {
    "adminCode2": "017",
    "adminCode3": "",
    "adminCode1": "MA",
    "lng": "-71.32039",
    "houseNumber": "",
    "locality": "Lowell",
    "adminCode4": "",
    "adminName2": "Middlesex",
    "street": "Lowell Con",
    "postalcode": "",
    "countryCode": "US",
    "adminName1": "Massachusetts",
    "lat": "42.61634"
  },
  "Syracuse, NY": {
    "adminCode2": "067",
    "adminCode3": "",
    "adminCode1": "NY",
    "lng": "-76.11075",
    "houseNumber": "",
    "locality": "Syracuse",
    "adminCode4": "",
    "adminName2": "Onondaga",
    "street": "Crawford Ave",
    "postalcode": "",
    "countryCode": "US",
    "adminName1": "New York",
    "lat": "43.03102"
  },
  "College Park, MD": {
    "adminCode2": "033",
    "adminCode3": "",
    "adminCode1": "MD",
    "lng": "-76.92702",
    "houseNumber": "",
    "locality": "College Park",
    "adminCode4": "",
    "adminName2": "Prince George's",
    "street": "College Ave",
    "postalcode": "20740",
    "countryCode": "US",
    "adminName1": "Maryland",
    "lat": "38.9797"
  },
  "New Orleans, LA": {
    "adminCode2": "071",
    "adminCode3": "",
    "adminCode1": "LA",
    "lng": "-90.0924",
    "houseNumber": "",
    "locality": "New Orleans",
    "adminCode4": "",
    "adminName2": "Orleans",
    "street": "Alferez",
    "postalcode": "",
    "countryCode": "US",
    "adminName1": "Louisiana",
    "lat": "29.98751"
  },
  "Bronxville, NY": {
    "adminCode2": "119",
    "adminCode3": "",
    "adminCode1": "NY",
    "lng": "-73.83568",
    "houseNumber": "",
    "locality": "Bronxville",
    "adminCode4": "",
    "adminName2": "Westchester",
    "street": "Parkway Rd",
    "postalcode": "",
    "countryCode": "US",
    "adminName1": "New York",
    "lat": "40.94172"
  },
  "Medford, MA": {
    "adminCode2": "017",
    "adminCode3": "",
    "adminCode1": "MA",
    "lng": "-71.10547",
    "houseNumber": "",
    "locality": "Medford",
    "adminCode4": "",
    "adminName2": "Middlesex",
    "street": "Medford St",
    "postalcode": "",
    "countryCode": "US",
    "adminName1": "Massachusetts",
    "lat": "42.39979"
  },
  "Palo Alto, CA": {
    "adminCode2": "085",
    "adminCode3": "",
    "adminCode1": "CA",
    "lng": "-122.14262",
    "houseNumber": "",
    "locality": "Palo Alto",
    "adminCode4": "",
    "adminName2": "Santa Clara",
    "street": "Palo Alto Sq",
    "postalcode": "94306",
    "countryCode": "US",
    "adminName1": "California",
    "lat": "37.42362"
  },
  "New Haven, CT": {
    "adminCode2": "009",
    "adminCode3": "",
    "adminCode1": "CT",
    "lng": "-72.904",
    "houseNumber": "",
    "locality": "New Haven",
    "adminCode4": "",
    "adminName2": "New Haven",
    "street": "Haven St",
    "postalcode": "06513",
    "countryCode": "US",
    "adminName1": "Connecticut",
    "lat": "41.30754"
  },
  "Poughkeepsie, NY": {
    "adminCode2": "027",
    "adminCode3": "",
    "adminCode1": "NY",
    "lng": "-73.90889",
    "houseNumber": "",
    "locality": "Poughkeepsie",
    "adminCode4": "",
    "adminName2": "Dutchess",
    "street": "Fountainbrook Ave",
    "postalcode": "",
    "countryCode": "US",
    "adminName1": "New York",
    "lat": "41.68967"
  },
  "Fairfax, VA": {
    "adminCode2": "600",
    "adminCode3": "",
    "adminCode1": "VA",
    "lng": "-77.27456",
    "houseNumber": "",
    "locality": "Fairfax",
    "adminCode4": "",
    "adminName2": "Fairfax",
    "street": "Fairfax Blvd",
    "postalcode": "",
    "countryCode": "US",
    "adminName1": "Virginia",
    "lat": "38.86465"
  },
  "Boone, NC": {
    "adminCode2": "189",
    "adminCode3": "",
    "adminCode1": "NC",
    "lng": "-81.63904",
    "houseNumber": "",
    "locality": "Boone",
    "adminCode4": "",
    "adminName2": "Watauga",
    "street": "Kellwood Dr",
    "postalcode": "",
    "countryCode": "US",
    "adminName1": "North Carolina",
    "lat": "36.19353"
  },
  "Montreal, Canada": {
    "lat": 45.5017,
    "lng": -73.5673
  },
  "Memphis, TN": {
    "adminCode2": "157",
    "adminCode3": "",
    "adminCode1": "TN",
    "lng": "-90.01688",
    "houseNumber": "",
    "locality": "Memphis",
    "adminCode4": "",
    "adminName2": "Shelby",
    "street": "Memphis St",
    "postalcode": "",
    "countryCode": "US",
    "adminName1": "Tennessee",
    "lat": "35.1677"
  },
  "Providence, RI": {
    "adminCode2": "007",
    "adminCode3": "",
    "adminCode1": "RI",
    "lng": "-71.41858",
    "houseNumber": "",
    "locality": "Providence",
    "adminCode4": "",
    "adminName2": "Providence",
    "street": "Providence Pl",
    "postalcode": "",
    "countryCode": "US",
    "adminName1": "Rhode Island",
    "lat": "41.82767"
  },
  "Denver, CO": {
    "adminCode2": "031",
    "adminCode3": "",
    "adminCode1": "CO",
    "lng": "-105.05165",
    "houseNumber": "",
    "locality": "Denver",
    "adminCode4": "",
    "adminName2": "Denver",
    "street": "Denver Dr",
    "postalcode": "",
    "countryCode": "US",
    "adminName1": "Colorado",
    "lat": "39.64915"
  },
  "Colorado Springs, CO": {
    "adminCode2": "041",
    "adminCode3": "",
    "adminCode1": "CO",
    "lng": "-104.69882",
    "houseNumber": "",
    "locality": "Colorado Springs",
    "adminCode4": "",
    "adminName2": "El Paso",
    "street": "Alder Springs Vw",
    "postalcode": "80922",
    "countryCode": "US",
    "adminName1": "Colorado",
    "lat": "38.89322"
  },
  "Saratoga Springs, NY": {
    "adminCode2": "091",
    "adminCode3": "",
    "adminCode1": "NY",
    "lng": "-73.80388",
    "houseNumber": "",
    "locality": "Saratoga Springs",
    "adminCode4": "",
    "adminName2": "Saratoga",
    "street": "Saratoga Spa State Park",
    "postalcode": "12866",
    "countryCode": "US",
    "adminName1": "New York",
    "lat": "43.05611"
  },
  "Evanston, IL": {
    "adminCode2": "031",
    "adminCode3": "",
    "adminCode1": "IL",
    "lng": "-87.69504",
    "houseNumber": "",
    "locality": "Evanston",
    "adminCode4": "",
    "adminName2": "Cook",
    "street": "North Shore Chnnl",
    "postalcode": "",
    "countryCode": "US",
    "adminName1": "Illinois",
    "lat": "42.05877"
  },
  "Pittsburgh, PA": {
    "adminCode2": "003",
    "adminCode3": "",
    "adminCode1": "PA",
    "lng": "-80.01738",
    "houseNumber": "",
    "locality": "Pittsburgh",
    "adminCode4": "",
    "adminName2": "Allegheny",
    "street": "Sussex Ave",
    "postalcode": "",
    "countryCode": "US",
    "adminName1": "Pennsylvania",
    "lat": "40.38916"
  },
  "Hoboken, NJ": {
    "adminCode2": "017",
    "adminCode3": "",
    "adminCode1": "NJ",
    "lng": "-74.02438",
    "houseNumber": "",
    "locality": "Hoboken",
    "adminCode4": "",
    "adminName2": "Hudson",
    "street": "15th St",
    "postalcode": "",
    "countryCode": "US",
    "adminName1": "New Jersey",
    "lat": "40.75414"
  },
  "Tallahassee, FL": {
    "adminCode2": "073",
    "adminCode3": "",
    "adminCode1": "FL",
    "lng": "-84.24331",
    "houseNumber": "",
    "locality": "Tallahassee",
    "adminCode4": "",
    "adminName2": "Leon",
    "street": "Tallahassee Dr",
    "postalcode": "",
    "countryCode": "US",
    "adminName1": "Florida",
    "lat": "30.51373"
  },
  "Amherst, MA": {
    "adminCode2": "015",
    "adminCode3": "",
    "adminCode1": "MA",
    "lng": "-72.52826",
    "houseNumber": "",
    "locality": "North Amherst",
    "adminCode4": "",
    "adminName2": "Hampshire",
    "street": "Crestview",
    "postalcode": "",
    "countryCode": "US",
    "adminName1": "Massachusetts",
    "lat": "42.4038"
  },
  "Lexington Park, MD": {
    "adminCode2": "037",
    "adminCode3": "",
    "adminCode1": "MD",
    "lng": "-76.4543",
    "houseNumber": "",
    "locality": "Lexington Park",
    "adminCode4": "",
    "adminName2": "Saint Mary's",
    "street": "Willows Rd",
    "postalcode": "20653",
    "countryCode": "US",
    "adminName1": "Maryland",
    "lat": "38.24789"
  },
  "Columbia, SC": {
    "adminCode2": "079",
    "adminCode3": "",
    "adminCode1": "SC",
    "lng": "-81.16575",
    "houseNumber": "",
    "locality": "Columbia",
    "adminCode4": "",
    "adminName2": "Richland",
    "street": "Columbia Ave",
    "postalcode": "",
    "countryCode": "US",
    "adminName1": "South Carolina",
    "lat": "34.08848"
  },
  "San Francisco, CA": {
    "adminCode2": "075",
    "adminCode3": "",
    "adminCode1": "CA",
    "lng": "-122.4126",
    "houseNumber": "",
    "locality": "San Francisco",
    "adminCode4": "",
    "adminName2": "San Francisco County",
    "street": "Francisco St",
    "postalcode": "94133",
    "countryCode": "US",
    "adminName1": "California",
    "lat": "37.80479"
  }
}